time,.header.seq,.header.stamp.secs,.header.stamp.nsecs,.header.frame_id,.status.status,.status.service,.latitude,.longitude,.altitude,.position_covariance,.position_covariance_type
2019/11/15/11:40:06.994837,24,1573785606,994514942,gps,0,1,36.38205717,127.3676462,90.2,"(18.3184, 0.0, 0.0, 0.0, 18.3184, 0.0, 0.0, 0.0, 293.0944)",1
2019/11/15/11:40:07.993330,25,1573785607,993129014,gps,0,1,36.38205633,127.3676463,90.5,"(18.3184, 0.0, 0.0, 0.0, 18.3184, 0.0, 0.0, 0.0, 293.0944)",1
2019/11/15/11:40:08.991022,26,1573785608,990794897,gps,0,1,36.38205683,127.3676463,90.4,"(24.2064, 0.0, 0.0, 0.0, 24.2064, 0.0, 0.0, 0.0, 387.3024)",1
2019/11/15/11:40:09.993819,27,1573785609,993629932,gps,0,1,36.382056,127.3676467,90.7,"(18.3184, 0.0, 0.0, 0.0, 18.3184, 0.0, 0.0, 0.0, 293.0944)",1
2019/11/15/11:40:10.993161,28,1573785610,992940902,gps,0,1,36.382055,127.3676475,91.1,"(18.3184, 0.0, 0.0, 0.0, 18.3184, 0.0, 0.0, 0.0, 293.0944)",1
2019/11/15/11:40:11.991594,29,1573785611,991372108,gps,0,1,36.38205517,127.3676482,91.1,"(24.2064, 0.0, 0.0, 0.0, 24.2064, 0.0, 0.0, 0.0, 387.3024)",1
2019/11/15/11:40:12.992511,30,1573785612,992307901,gps,0,1,36.3820545,127.3676492,91.4,"(18.3184, 0.0, 0.0, 0.0, 18.3184, 0.0, 0.0, 0.0, 293.0944)",1
2019/11/15/11:40:13.993120,31,1573785613,992888927,gps,0,1,36.38205333,127.3676497,91.8,"(18.3184, 0.0, 0.0, 0.0, 18.3184, 0.0, 0.0, 0.0, 293.0944)",1
2019/11/15/11:40:14.988583,32,1573785614,988428115,gps,0,1,36.38205333,127.36765,91.7,"(24.2064, 0.0, 0.0, 0.0, 24.2064, 0.0, 0.0, 0.0, 387.3024)",1
2019/11/15/11:40:15.991705,33,1573785615,991533041,gps,0,1,36.38205233,127.3676507,91.9,"(18.3184, 0.0, 0.0, 0.0, 18.3184, 0.0, 0.0, 0.0, 293.0944)",1
2019/11/15/11:40:16.991513,34,1573785616,991338968,gps,0,1,36.38205133,127.367651,92.1,"(18.3184, 0.0, 0.0, 0.0, 18.3184, 0.0, 0.0, 0.0, 293.0944)",1
2019/11/15/11:40:17.996163,35,1573785617,995949983,gps,0,1,36.38205033,127.3676513,92.3,"(18.3184, 0.0, 0.0, 0.0, 18.3184, 0.0, 0.0, 0.0, 293.0944)",1
2019/11/15/11:40:18.993974,36,1573785618,993773937,gps,0,1,36.3820505,127.3676513,92.2,"(24.2064, 0.0, 0.0, 0.0, 24.2064, 0.0, 0.0, 0.0, 387.3024)",1
2019/11/15/11:40:19.993898,37,1573785619,993720054,gps,0,1,36.38204983,127.3676515,92.2,"(18.3184, 0.0, 0.0, 0.0, 18.3184, 0.0, 0.0, 0.0, 293.0944)",1
2019/11/15/11:40:20.994173,38,1573785620,994007110,gps,0,1,36.38204867,127.3676518,92.4,"(18.3184, 0.0, 0.0, 0.0, 18.3184, 0.0, 0.0, 0.0, 293.0944)",1
2019/11/15/11:40:21.990870,39,1573785621,990652084,gps,0,1,36.38204717,127.3676518,92.6,"(18.3184, 0.0, 0.0, 0.0, 18.3184, 0.0, 0.0, 0.0, 293.0944)",1
2019/11/15/11:40:22.991788,40,1573785622,991501092,gps,0,1,36.38204733,127.3676517,92.4,"(24.2064, 0.0, 0.0, 0.0, 24.2064, 0.0, 0.0, 0.0, 387.3024)",1
2019/11/15/11:40:23.993060,41,1573785623,992752075,gps,0,1,36.3820465,127.3676517,92.5,"(18.3184, 0.0, 0.0, 0.0, 18.3184, 0.0, 0.0, 0.0, 293.0944)",1
2019/11/15/11:40:24.992526,42,1573785624,992234945,gps,0,1,36.3820455,127.3676518,92.6,"(18.3184, 0.0, 0.0, 0.0, 18.3184, 0.0, 0.0, 0.0, 293.0944)",1
2019/11/15/11:40:25.989583,43,1573785625,989295959,gps,0,1,36.38204567,127.367652,92.5,"(24.2064, 0.0, 0.0, 0.0, 24.2064, 0.0, 0.0, 0.0, 387.3024)",1
2019/11/15/11:40:26.996119,44,1573785626,995579004,gps,0,1,36.382045,127.3676523,92.6,"(18.3184, 0.0, 0.0, 0.0, 18.3184, 0.0, 0.0, 0.0, 293.0944)",1
2019/11/15/11:40:27.992552,45,1573785627,992265939,gps,0,1,36.382044,127.3676527,92.9,"(18.3184, 0.0, 0.0, 0.0, 18.3184, 0.0, 0.0, 0.0, 293.0944)",1
2019/11/15/11:40:28.992279,46,1573785628,991926908,gps,0,1,36.38204267,127.3676532,93.2,"(18.3184, 0.0, 0.0, 0.0, 18.3184, 0.0, 0.0, 0.0, 293.0944)",1
2019/11/15/11:40:29.992021,47,1573785629,991712093,gps,0,1,36.38204317,127.3676532,93.1,"(24.2064, 0.0, 0.0, 0.0, 24.2064, 0.0, 0.0, 0.0, 387.3024)",1
2019/11/15/11:40:30.995221,48,1573785630,995011091,gps,0,1,36.38204233,127.3676533,93.3,"(18.3184, 0.0, 0.0, 0.0, 18.3184, 0.0, 0.0, 0.0, 293.0944)",1
2019/11/15/11:40:31.998247,49,1573785631,997668027,gps,0,1,36.38204133,127.3676538,93.5,"(18.3184, 0.0, 0.0, 0.0, 18.3184, 0.0, 0.0, 0.0, 293.0944)",1
2019/11/15/11:40:32.989894,50,1573785632,989717006,gps,0,1,36.38204017,127.3676543,93.9,"(18.3184, 0.0, 0.0, 0.0, 18.3184, 0.0, 0.0, 0.0, 293.0944)",1
2019/11/15/11:40:33.995759,51,1573785633,995129108,gps,0,1,36.38204017,127.3676548,93.9,"(24.2064, 0.0, 0.0, 0.0, 24.2064, 0.0, 0.0, 0.0, 387.3024)",1
2019/11/15/11:40:34.995081,52,1573785634,994726896,gps,0,1,36.38203933,127.3676555,94.2,"(18.3184, 0.0, 0.0, 0.0, 18.3184, 0.0, 0.0, 0.0, 293.0944)",1
2019/11/15/11:40:35.994186,53,1573785635,994000911,gps,0,1,36.38203817,127.3676562,94.4,"(18.3184, 0.0, 0.0, 0.0, 18.3184, 0.0, 0.0, 0.0, 293.0944)",1
2019/11/15/11:40:36.992684,54,1573785636,992460012,gps,0,1,36.38203667,127.3676567,94.8,"(18.3184, 0.0, 0.0, 0.0, 18.3184, 0.0, 0.0, 0.0, 293.0944)",1
2019/11/15/11:40:37.994772,55,1573785637,994532108,gps,0,1,36.38203683,127.367657,94.7,"(24.2064, 0.0, 0.0, 0.0, 24.2064, 0.0, 0.0, 0.0, 387.3024)",1
2019/11/15/11:40:38.994169,56,1573785638,993884086,gps,0,1,36.38203583,127.3676573,94.9,"(18.3184, 0.0, 0.0, 0.0, 18.3184, 0.0, 0.0, 0.0, 293.0944)",1
2019/11/15/11:40:39.994707,57,1573785639,994497060,gps,0,1,36.38203467,127.3676577,95.1,"(18.3184, 0.0, 0.0, 0.0, 18.3184, 0.0, 0.0, 0.0, 293.0944)",1
2019/11/15/11:40:40.995735,58,1573785640,995333909,gps,0,1,36.3820335,127.367658,95.4,"(18.3184, 0.0, 0.0, 0.0, 18.3184, 0.0, 0.0, 0.0, 293.0944)",1
2019/11/15/11:40:41.993901,59,1573785641,993705034,gps,0,1,36.38203367,127.3676587,95.4,"(24.2064, 0.0, 0.0, 0.0, 24.2064, 0.0, 0.0, 0.0, 387.3024)",1
2019/11/15/11:40:42.993812,60,1573785642,993612051,gps,0,1,36.382033,127.367659,95.5,"(18.3184, 0.0, 0.0, 0.0, 18.3184, 0.0, 0.0, 0.0, 293.0944)",1
2019/11/15/11:40:43.990401,61,1573785643,990124940,gps,0,1,36.38203183,127.3676595,95.8,"(18.3184, 0.0, 0.0, 0.0, 18.3184, 0.0, 0.0, 0.0, 293.0944)",1
2019/11/15/11:40:44.993237,62,1573785644,993045091,gps,0,1,36.38203067,127.3676598,96,"(18.3184, 0.0, 0.0, 0.0, 18.3184, 0.0, 0.0, 0.0, 293.0944)",1
2019/11/15/11:40:45.993384,63,1573785645,993151903,gps,0,1,36.38202917,127.36766,96.3,"(18.3184, 0.0, 0.0, 0.0, 18.3184, 0.0, 0.0, 0.0, 293.0944)",1
2019/11/15/11:40:46.992660,64,1573785646,992487907,gps,0,1,36.38202967,127.3676597,96.2,"(24.2064, 0.0, 0.0, 0.0, 24.2064, 0.0, 0.0, 0.0, 387.3024)",1
2019/11/15/11:40:47.995664,65,1573785647,995362997,gps,0,1,36.382029,127.3676598,96.3,"(18.3184, 0.0, 0.0, 0.0, 18.3184, 0.0, 0.0, 0.0, 293.0944)",1
2019/11/15/11:40:48.993497,66,1573785648,993349075,gps,0,1,36.38202817,127.3676595,96.5,"(18.3184, 0.0, 0.0, 0.0, 18.3184, 0.0, 0.0, 0.0, 293.0944)",1
2019/11/15/11:40:49.993184,67,1573785649,992949962,gps,0,1,36.38202717,127.3676592,96.7,"(18.3184, 0.0, 0.0, 0.0, 18.3184, 0.0, 0.0, 0.0, 293.0944)",1
2019/11/15/11:40:51.005548,68,1573785651,5311012,gps,0,1,36.38202633,127.3676587,96.9,"(18.3184, 0.0, 0.0, 0.0, 18.3184, 0.0, 0.0, 0.0, 293.0944)",1
2019/11/15/11:40:51.990779,69,1573785651,990617990,gps,0,1,36.382027,127.3676578,96.7,"(24.2064, 0.0, 0.0, 0.0, 24.2064, 0.0, 0.0, 0.0, 387.3024)",1
2019/11/15/11:40:52.993840,70,1573785652,993674039,gps,0,1,36.38202683,127.3676567,96.7,"(18.3184, 0.0, 0.0, 0.0, 18.3184, 0.0, 0.0, 0.0, 293.0944)",1
2019/11/15/11:40:53.989340,71,1573785653,989068031,gps,0,1,36.38202667,127.367656,96.9,"(27.878400000000003, 0.0, 0.0, 0.0, 27.878400000000003, 0.0, 0.0, 0.0, 446.05440000000004)",1
2019/11/15/11:40:54.987587,72,1573785654,987387895,gps,0,1,36.38202567,127.3676562,97.1,"(27.878400000000003, 0.0, 0.0, 0.0, 27.878400000000003, 0.0, 0.0, 0.0, 446.05440000000004)",1
2019/11/15/11:40:55.990531,73,1573785655,990354061,gps,0,1,36.382026,127.3676557,97.1,"(33.64, 0.0, 0.0, 0.0, 33.64, 0.0, 0.0, 0.0, 538.24)",1
2019/11/15/11:40:56.989847,74,1573785656,989672899,gps,0,1,36.38202567,127.3676557,97.2,"(27.878400000000003, 0.0, 0.0, 0.0, 27.878400000000003, 0.0, 0.0, 0.0, 446.05440000000004)",1
2019/11/15/11:40:57.993468,75,1573785657,993299007,gps,0,1,36.38202533,127.367655,97.5,"(27.878400000000003, 0.0, 0.0, 0.0, 27.878400000000003, 0.0, 0.0, 0.0, 446.05440000000004)",1
2019/11/15/11:40:58.991572,76,1573785658,991400003,gps,0,1,36.3820275,127.3676533,97.6,"(27.878400000000003, 0.0, 0.0, 0.0, 27.878400000000003, 0.0, 0.0, 0.0, 446.05440000000004)",1
2019/11/15/11:40:59.992074,77,1573785659,991868972,gps,0,1,36.3820315,127.3676515,97.3,"(33.64, 0.0, 0.0, 0.0, 33.64, 0.0, 0.0, 0.0, 538.24)",1
2019/11/15/11:41:00.993328,78,1573785660,992964982,gps,0,1,36.38203417,127.3676515,97.2,"(27.878400000000003, 0.0, 0.0, 0.0, 27.878400000000003, 0.0, 0.0, 0.0, 446.05440000000004)",1
2019/11/15/11:41:01.991087,79,1573785661,990849018,gps,0,1,36.38203583,127.3676513,97.3,"(18.3184, 0.0, 0.0, 0.0, 18.3184, 0.0, 0.0, 0.0, 293.0944)",1
2019/11/15/11:41:02.991526,80,1573785662,991343975,gps,0,1,36.38203833,127.367651,97,"(24.2064, 0.0, 0.0, 0.0, 24.2064, 0.0, 0.0, 0.0, 387.3024)",1
2019/11/15/11:41:03.996300,81,1573785663,995753049,gps,0,1,36.38204133,127.3676497,96.7,"(24.2064, 0.0, 0.0, 0.0, 24.2064, 0.0, 0.0, 0.0, 387.3024)",1
2019/11/15/11:41:04.995625,82,1573785664,995356082,gps,0,1,36.38204417,127.3676498,96.6,"(24.2064, 0.0, 0.0, 0.0, 24.2064, 0.0, 0.0, 0.0, 387.3024)",1
2019/11/15/11:41:05.993051,83,1573785665,992886066,gps,0,1,36.38204667,127.3676485,96.7,"(18.3184, 0.0, 0.0, 0.0, 18.3184, 0.0, 0.0, 0.0, 293.0944)",1
2019/11/15/11:41:06.994781,84,1573785666,994554042,gps,0,1,36.3820505,127.3676467,96.3,"(24.2064, 0.0, 0.0, 0.0, 24.2064, 0.0, 0.0, 0.0, 387.3024)",1
2019/11/15/11:41:07.992634,85,1573785667,992446899,gps,0,1,36.38205383,127.3676455,96.1,"(24.2064, 0.0, 0.0, 0.0, 24.2064, 0.0, 0.0, 0.0, 387.3024)",1
2019/11/15/11:41:08.991499,86,1573785668,991240978,gps,0,1,36.38205733,127.3676433,95.8,"(24.2064, 0.0, 0.0, 0.0, 24.2064, 0.0, 0.0, 0.0, 387.3024)",1
2019/11/15/11:41:09.999200,87,1573785669,998709917,gps,0,1,36.38206117,127.3676413,95.5,"(24.2064, 0.0, 0.0, 0.0, 24.2064, 0.0, 0.0, 0.0, 387.3024)",1
2019/11/15/11:41:10.993683,88,1573785670,993459939,gps,0,1,36.38206467,127.3676392,95.3,"(24.2064, 0.0, 0.0, 0.0, 24.2064, 0.0, 0.0, 0.0, 387.3024)",1
2019/11/15/11:41:11.996855,89,1573785671,996402025,gps,0,1,36.38206933,127.3676363,95,"(24.2064, 0.0, 0.0, 0.0, 24.2064, 0.0, 0.0, 0.0, 387.3024)",1
2019/11/15/11:41:12.989758,90,1573785672,989458084,gps,0,1,36.38207383,127.3676332,94.7,"(24.2064, 0.0, 0.0, 0.0, 24.2064, 0.0, 0.0, 0.0, 387.3024)",1
2019/11/15/11:41:13.992194,91,1573785673,991965055,gps,0,1,36.38207833,127.3676297,94.5,"(24.2064, 0.0, 0.0, 0.0, 24.2064, 0.0, 0.0, 0.0, 387.3024)",1
2019/11/15/11:41:14.991570,92,1573785674,991343021,gps,0,1,36.38208233,127.3676252,94.4,"(24.2064, 0.0, 0.0, 0.0, 24.2064, 0.0, 0.0, 0.0, 387.3024)",1
2019/11/15/11:41:15.993845,93,1573785675,993655920,gps,0,1,36.38208533,127.3676202,94.5,"(18.3184, 0.0, 0.0, 0.0, 18.3184, 0.0, 0.0, 0.0, 293.0944)",1
2019/11/15/11:41:16.993521,94,1573785676,993316888,gps,0,1,36.382089,127.3676152,94.4,"(24.2064, 0.0, 0.0, 0.0, 24.2064, 0.0, 0.0, 0.0, 387.3024)",1
2019/11/15/11:41:17.992761,95,1573785677,992342948,gps,0,1,36.38209233,127.3676108,94.2,"(33.1776, 0.0, 0.0, 0.0, 33.1776, 0.0, 0.0, 0.0, 530.8416)",1
2019/11/15/11:41:18.992075,96,1573785678,991770982,gps,0,1,36.3820945,127.3676083,94,"(33.1776, 0.0, 0.0, 0.0, 33.1776, 0.0, 0.0, 0.0, 530.8416)",1
2019/11/15/11:41:19.991255,97,1573785679,990957975,gps,0,1,36.38209667,127.3676057,93.9,"(33.1776, 0.0, 0.0, 0.0, 33.1776, 0.0, 0.0, 0.0, 530.8416)",1
2019/11/15/11:41:20.993575,98,1573785680,993319988,gps,0,1,36.38209867,127.367603,93.8,"(24.2064, 0.0, 0.0, 0.0, 24.2064, 0.0, 0.0, 0.0, 387.3024)",1
2019/11/15/11:41:21.990113,99,1573785681,989921092,gps,0,1,36.38209983,127.3676018,93.6,"(33.1776, 0.0, 0.0, 0.0, 33.1776, 0.0, 0.0, 0.0, 530.8416)",1
2019/11/15/11:41:22.991854,100,1573785682,991633892,gps,0,1,36.38210033,127.3676013,93.5,"(33.1776, 0.0, 0.0, 0.0, 33.1776, 0.0, 0.0, 0.0, 530.8416)",1
2019/11/15/11:41:23.986831,101,1573785683,986627101,gps,0,1,36.382101,127.3676008,93.3,"(33.1776, 0.0, 0.0, 0.0, 33.1776, 0.0, 0.0, 0.0, 530.8416)",1
2019/11/15/11:41:24.990981,102,1573785684,990781068,gps,0,1,36.38210133,127.3676005,93.1,"(33.1776, 0.0, 0.0, 0.0, 33.1776, 0.0, 0.0, 0.0, 530.8416)",1
2019/11/15/11:41:25.990785,103,1573785685,990612030,gps,0,1,36.3821015,127.3676002,93,"(33.1776, 0.0, 0.0, 0.0, 33.1776, 0.0, 0.0, 0.0, 530.8416)",1
2019/11/15/11:41:26.991785,104,1573785686,991545915,gps,0,1,36.38210167,127.3675995,92.9,"(33.1776, 0.0, 0.0, 0.0, 33.1776, 0.0, 0.0, 0.0, 530.8416)",1
2019/11/15/11:41:27.991235,105,1573785687,991048097,gps,0,1,36.382102,127.3675988,92.8,"(33.1776, 0.0, 0.0, 0.0, 33.1776, 0.0, 0.0, 0.0, 530.8416)",1
2019/11/15/11:41:28.990314,106,1573785688,990101099,gps,0,1,36.38210233,127.3675982,92.6,"(33.1776, 0.0, 0.0, 0.0, 33.1776, 0.0, 0.0, 0.0, 530.8416)",1
2019/11/15/11:41:29.991686,107,1573785689,991401910,gps,0,1,36.38210233,127.3675977,92.5,"(33.1776, 0.0, 0.0, 0.0, 33.1776, 0.0, 0.0, 0.0, 530.8416)",1
2019/11/15/11:41:30.989733,108,1573785690,989603042,gps,0,1,36.38210267,127.3675972,92.3,"(33.1776, 0.0, 0.0, 0.0, 33.1776, 0.0, 0.0, 0.0, 530.8416)",1
2019/11/15/11:41:31.994501,109,1573785691,994227886,gps,0,1,36.3821035,127.3675965,92.2,"(24.2064, 0.0, 0.0, 0.0, 24.2064, 0.0, 0.0, 0.0, 387.3024)",1
2019/11/15/11:41:32.992052,110,1573785692,991904973,gps,0,1,36.38210417,127.367596,92.2,"(24.2064, 0.0, 0.0, 0.0, 24.2064, 0.0, 0.0, 0.0, 387.3024)",1
2019/11/15/11:41:33.993626,111,1573785693,993387937,gps,0,1,36.38210467,127.3675955,92.1,"(24.2064, 0.0, 0.0, 0.0, 24.2064, 0.0, 0.0, 0.0, 387.3024)",1
2019/11/15/11:41:34.987371,112,1573785694,987180948,gps,0,1,36.3821055,127.367595,92,"(24.2064, 0.0, 0.0, 0.0, 24.2064, 0.0, 0.0, 0.0, 387.3024)",1
2019/11/15/11:41:35.994617,113,1573785695,994338989,gps,0,1,36.38210633,127.3675943,92,"(24.2064, 0.0, 0.0, 0.0, 24.2064, 0.0, 0.0, 0.0, 387.3024)",1
2019/11/15/11:41:36.993368,114,1573785696,992935895,gps,0,1,36.38210733,127.3675937,92,"(24.2064, 0.0, 0.0, 0.0, 24.2064, 0.0, 0.0, 0.0, 387.3024)",1
2019/11/15/11:41:37.993072,115,1573785697,992798089,gps,0,1,36.382108,127.3675932,91.9,"(24.2064, 0.0, 0.0, 0.0, 24.2064, 0.0, 0.0, 0.0, 387.3024)",1
2019/11/15/11:41:38.993594,116,1573785698,993405103,gps,0,1,36.38210867,127.3675928,91.8,"(24.2064, 0.0, 0.0, 0.0, 24.2064, 0.0, 0.0, 0.0, 387.3024)",1
2019/11/15/11:41:39.993778,117,1573785699,993465900,gps,0,1,36.38210933,127.3675922,91.7,"(24.2064, 0.0, 0.0, 0.0, 24.2064, 0.0, 0.0, 0.0, 387.3024)",1
2019/11/15/11:41:40.992098,118,1573785700,991874933,gps,0,1,36.38210983,127.3675917,91.6,"(24.2064, 0.0, 0.0, 0.0, 24.2064, 0.0, 0.0, 0.0, 387.3024)",1
2019/11/15/11:41:41.993954,119,1573785701,993743896,gps,0,1,36.38211067,127.3675908,91.5,"(24.2064, 0.0, 0.0, 0.0, 24.2064, 0.0, 0.0, 0.0, 387.3024)",1
2019/11/15/11:41:42.992330,120,1573785702,992041110,gps,0,1,36.38211167,127.3675895,91.4,"(33.1776, 0.0, 0.0, 0.0, 33.1776, 0.0, 0.0, 0.0, 530.8416)",1
2019/11/15/11:41:43.987394,121,1573785703,987179040,gps,0,1,36.382113,127.367588,91.3,"(33.1776, 0.0, 0.0, 0.0, 33.1776, 0.0, 0.0, 0.0, 530.8416)",1
2019/11/15/11:41:44.991470,122,1573785704,991249084,gps,0,1,36.382114,127.3675867,91.3,"(33.1776, 0.0, 0.0, 0.0, 33.1776, 0.0, 0.0, 0.0, 530.8416)",1
2019/11/15/11:41:45.990586,123,1573785705,990304946,gps,0,1,36.3821155,127.3675855,91.1,"(33.1776, 0.0, 0.0, 0.0, 33.1776, 0.0, 0.0, 0.0, 530.8416)",1
2019/11/15/11:41:46.992235,124,1573785706,992063045,gps,0,1,36.38211717,127.367584,91,"(24.2064, 0.0, 0.0, 0.0, 24.2064, 0.0, 0.0, 0.0, 387.3024)",1
2019/11/15/11:41:47.995337,125,1573785707,994807958,gps,0,1,36.382119,127.3675823,90.9,"(24.2064, 0.0, 0.0, 0.0, 24.2064, 0.0, 0.0, 0.0, 387.3024)",1
2019/11/15/11:41:48.990978,126,1573785708,990756034,gps,0,1,36.382121,127.3675807,90.8,"(24.2064, 0.0, 0.0, 0.0, 24.2064, 0.0, 0.0, 0.0, 387.3024)",1
2019/11/15/11:41:49.994383,127,1573785709,993783950,gps,0,1,36.38212233,127.3675795,90.8,"(33.1776, 0.0, 0.0, 0.0, 33.1776, 0.0, 0.0, 0.0, 530.8416)",1
2019/11/15/11:41:51.005387,128,1573785711,5156993,gps,0,1,36.38212467,127.3675785,90.7,"(33.1776, 0.0, 0.0, 0.0, 33.1776, 0.0, 0.0, 0.0, 530.8416)",1
2019/11/15/11:41:51.990314,129,1573785711,990109920,gps,0,1,36.38212617,127.3675777,90.7,"(33.1776, 0.0, 0.0, 0.0, 33.1776, 0.0, 0.0, 0.0, 530.8416)",1
2019/11/15/11:41:52.986528,130,1573785712,986332893,gps,0,1,36.38212767,127.3675767,90.6,"(33.1776, 0.0, 0.0, 0.0, 33.1776, 0.0, 0.0, 0.0, 530.8416)",1
2019/11/15/11:41:53.990261,131,1573785713,990065097,gps,0,1,36.38212883,127.3675758,90.6,"(24.2064, 0.0, 0.0, 0.0, 24.2064, 0.0, 0.0, 0.0, 387.3024)",1
2019/11/15/11:41:54.991485,132,1573785714,991214036,gps,0,1,36.38213017,127.3675752,90.5,"(24.2064, 0.0, 0.0, 0.0, 24.2064, 0.0, 0.0, 0.0, 387.3024)",1
2019/11/15/11:41:55.991980,133,1573785715,991797924,gps,0,1,36.38213167,127.3675742,90.5,"(24.2064, 0.0, 0.0, 0.0, 24.2064, 0.0, 0.0, 0.0, 387.3024)",1
2019/11/15/11:41:56.993495,134,1573785716,993289947,gps,0,1,36.38213317,127.3675735,90.4,"(24.2064, 0.0, 0.0, 0.0, 24.2064, 0.0, 0.0, 0.0, 387.3024)",1
2019/11/15/11:41:57.991336,135,1573785717,991125106,gps,0,1,36.38213467,127.367573,90.3,"(24.2064, 0.0, 0.0, 0.0, 24.2064, 0.0, 0.0, 0.0, 387.3024)",1
2019/11/15/11:41:58.993701,136,1573785718,993511915,gps,0,1,36.38213617,127.3675728,90.2,"(24.2064, 0.0, 0.0, 0.0, 24.2064, 0.0, 0.0, 0.0, 387.3024)",1
2019/11/15/11:41:59.991994,137,1573785719,991800069,gps,0,1,36.3821375,127.3675725,90.2,"(24.2064, 0.0, 0.0, 0.0, 24.2064, 0.0, 0.0, 0.0, 387.3024)",1
2019/11/15/11:42:00.991628,138,1573785720,991453886,gps,0,1,36.38213867,127.367572,90.1,"(24.2064, 0.0, 0.0, 0.0, 24.2064, 0.0, 0.0, 0.0, 387.3024)",1
2019/11/15/11:42:01.992415,139,1573785721,992172002,gps,0,1,36.3821405,127.3675718,90,"(24.2064, 0.0, 0.0, 0.0, 24.2064, 0.0, 0.0, 0.0, 387.3024)",1
2019/11/15/11:42:02.995092,140,1573785722,994900941,gps,0,1,36.382143,127.3675713,89.9,"(24.2064, 0.0, 0.0, 0.0, 24.2064, 0.0, 0.0, 0.0, 387.3024)",1
2019/11/15/11:42:03.990181,141,1573785723,990035057,gps,0,1,36.382145,127.3675712,89.9,"(24.2064, 0.0, 0.0, 0.0, 24.2064, 0.0, 0.0, 0.0, 387.3024)",1
2019/11/15/11:42:04.994046,142,1573785724,993716001,gps,0,1,36.38214717,127.3675713,89.7,"(24.2064, 0.0, 0.0, 0.0, 24.2064, 0.0, 0.0, 0.0, 387.3024)",1
2019/11/15/11:42:05.992681,143,1573785725,992512941,gps,0,1,36.38215,127.3675712,89.6,"(24.2064, 0.0, 0.0, 0.0, 24.2064, 0.0, 0.0, 0.0, 387.3024)",1
2019/11/15/11:42:06.991193,144,1573785726,990952014,gps,0,1,36.38215283,127.3675715,89.4,"(24.2064, 0.0, 0.0, 0.0, 24.2064, 0.0, 0.0, 0.0, 387.3024)",1
2019/11/15/11:42:07.991630,145,1573785727,991420984,gps,0,1,36.38215417,127.3675715,89.4,"(24.2064, 0.0, 0.0, 0.0, 24.2064, 0.0, 0.0, 0.0, 387.3024)",1
2019/11/15/11:42:08.992700,146,1573785728,992563009,gps,0,1,36.38215483,127.3675717,89.3,"(24.2064, 0.0, 0.0, 0.0, 24.2064, 0.0, 0.0, 0.0, 387.3024)",1
2019/11/15/11:42:09.993464,147,1573785729,993315935,gps,0,1,36.382156,127.3675718,89.3,"(24.2064, 0.0, 0.0, 0.0, 24.2064, 0.0, 0.0, 0.0, 387.3024)",1
2019/11/15/11:42:10.990296,148,1573785730,990104913,gps,0,1,36.38215717,127.3675722,89.2,"(24.2064, 0.0, 0.0, 0.0, 24.2064, 0.0, 0.0, 0.0, 387.3024)",1
2019/11/15/11:42:12.001569,149,1573785732,1386880,gps,0,1,36.3821565,127.3675715,89.6,"(18.3184, 0.0, 0.0, 0.0, 18.3184, 0.0, 0.0, 0.0, 293.0944)",1
2019/11/15/11:42:12.995637,150,1573785732,995294094,gps,0,1,36.382157,127.3675718,89.6,"(24.2064, 0.0, 0.0, 0.0, 24.2064, 0.0, 0.0, 0.0, 387.3024)",1
2019/11/15/11:42:13.998151,151,1573785733,997855901,gps,0,1,36.38215533,127.367571,90,"(18.3184, 0.0, 0.0, 0.0, 18.3184, 0.0, 0.0, 0.0, 293.0944)",1
2019/11/15/11:42:14.990041,152,1573785734,989748954,gps,0,1,36.38215583,127.3675712,90.1,"(24.2064, 0.0, 0.0, 0.0, 24.2064, 0.0, 0.0, 0.0, 387.3024)",1
2019/11/15/11:42:15.996919,153,1573785735,996658086,gps,0,1,36.38215633,127.3675717,89.9,"(24.2064, 0.0, 0.0, 0.0, 24.2064, 0.0, 0.0, 0.0, 387.3024)",1
2019/11/15/11:42:16.995737,154,1573785736,995300054,gps,0,1,36.3821555,127.367571,90.1,"(18.3184, 0.0, 0.0, 0.0, 18.3184, 0.0, 0.0, 0.0, 293.0944)",1
2019/11/15/11:42:17.995995,155,1573785737,995789051,gps,0,1,36.3821535,127.36757,90.5,"(18.3184, 0.0, 0.0, 0.0, 18.3184, 0.0, 0.0, 0.0, 293.0944)",1
2019/11/15/11:42:18.994617,156,1573785738,994256973,gps,0,1,36.38215367,127.3675707,90.4,"(24.2064, 0.0, 0.0, 0.0, 24.2064, 0.0, 0.0, 0.0, 387.3024)",1
2019/11/15/11:42:19.993368,157,1573785739,993103981,gps,0,1,36.3821555,127.3675718,90.3,"(24.2064, 0.0, 0.0, 0.0, 24.2064, 0.0, 0.0, 0.0, 387.3024)",1
2019/11/15/11:42:20.994399,158,1573785740,994194984,gps,0,1,36.382159,127.3675728,90.2,"(24.2064, 0.0, 0.0, 0.0, 24.2064, 0.0, 0.0, 0.0, 387.3024)",1
2019/11/15/11:42:21.994647,159,1573785741,994071960,gps,0,1,36.38216317,127.3675718,90.1,"(24.2064, 0.0, 0.0, 0.0, 24.2064, 0.0, 0.0, 0.0, 387.3024)",1
2019/11/15/11:42:22.991484,160,1573785742,991230010,gps,0,1,36.38216683,127.3675708,89.9,"(24.2064, 0.0, 0.0, 0.0, 24.2064, 0.0, 0.0, 0.0, 387.3024)",1
2019/11/15/11:42:23.991839,161,1573785743,991641044,gps,0,1,36.38217133,127.3675695,89.8,"(24.2064, 0.0, 0.0, 0.0, 24.2064, 0.0, 0.0, 0.0, 387.3024)",1
2019/11/15/11:42:24.995003,162,1573785744,994636058,gps,0,1,36.38217617,127.3675682,89.7,"(24.2064, 0.0, 0.0, 0.0, 24.2064, 0.0, 0.0, 0.0, 387.3024)",1
2019/11/15/11:42:25.997591,163,1573785745,997020959,gps,0,1,36.3821805,127.3675652,89.6,"(24.2064, 0.0, 0.0, 0.0, 24.2064, 0.0, 0.0, 0.0, 387.3024)",1
2019/11/15/11:42:26.992646,164,1573785746,992360115,gps,0,1,36.38218383,127.3675628,89.6,"(24.2064, 0.0, 0.0, 0.0, 24.2064, 0.0, 0.0, 0.0, 387.3024)",1
2019/11/15/11:42:27.992890,165,1573785747,992662906,gps,0,1,36.382187,127.3675615,89.6,"(24.2064, 0.0, 0.0, 0.0, 24.2064, 0.0, 0.0, 0.0, 387.3024)",1
2019/11/15/11:42:28.991709,166,1573785748,991497993,gps,0,1,36.3821905,127.3675602,89.5,"(24.2064, 0.0, 0.0, 0.0, 24.2064, 0.0, 0.0, 0.0, 387.3024)",1
2019/11/15/11:42:29.991430,167,1573785749,991231918,gps,0,1,36.382193,127.3675598,89.4,"(24.2064, 0.0, 0.0, 0.0, 24.2064, 0.0, 0.0, 0.0, 387.3024)",1
2019/11/15/11:42:30.991886,168,1573785750,991710901,gps,0,1,36.38219517,127.3675592,89.3,"(24.2064, 0.0, 0.0, 0.0, 24.2064, 0.0, 0.0, 0.0, 387.3024)",1
2019/11/15/11:42:31.992787,169,1573785751,992563009,gps,0,1,36.38219683,127.3675585,89.3,"(24.2064, 0.0, 0.0, 0.0, 24.2064, 0.0, 0.0, 0.0, 387.3024)",1
2019/11/15/11:42:32.988129,170,1573785752,987911939,gps,0,1,36.38219783,127.3675583,89.1,"(24.2064, 0.0, 0.0, 0.0, 24.2064, 0.0, 0.0, 0.0, 387.3024)",1
2019/11/15/11:42:33.992825,171,1573785753,992616891,gps,0,1,36.38219867,127.3675587,88.9,"(24.2064, 0.0, 0.0, 0.0, 24.2064, 0.0, 0.0, 0.0, 387.3024)",1
2019/11/15/11:42:34.991093,172,1573785754,990863084,gps,0,1,36.38219933,127.367559,88.8,"(24.2064, 0.0, 0.0, 0.0, 24.2064, 0.0, 0.0, 0.0, 387.3024)",1
2019/11/15/11:42:35.994752,173,1573785755,994544982,gps,0,1,36.38219983,127.367559,88.7,"(24.2064, 0.0, 0.0, 0.0, 24.2064, 0.0, 0.0, 0.0, 387.3024)",1
2019/11/15/11:42:36.994017,174,1573785756,993794918,gps,0,1,36.38220017,127.3675588,88.6,"(24.2064, 0.0, 0.0, 0.0, 24.2064, 0.0, 0.0, 0.0, 387.3024)",1
2019/11/15/11:42:37.991966,175,1573785757,991729021,gps,0,1,36.3822005,127.3675588,88.5,"(24.2064, 0.0, 0.0, 0.0, 24.2064, 0.0, 0.0, 0.0, 387.3024)",1
2019/11/15/11:42:38.992699,176,1573785758,992496013,gps,0,1,36.38220083,127.367559,88.5,"(24.2064, 0.0, 0.0, 0.0, 24.2064, 0.0, 0.0, 0.0, 387.3024)",1
2019/11/15/11:42:39.989521,177,1573785759,989346027,gps,0,1,36.38220133,127.3675592,88.4,"(24.2064, 0.0, 0.0, 0.0, 24.2064, 0.0, 0.0, 0.0, 387.3024)",1
2019/11/15/11:42:40.990151,178,1573785760,989950895,gps,0,1,36.38220217,127.3675593,88.2,"(24.2064, 0.0, 0.0, 0.0, 24.2064, 0.0, 0.0, 0.0, 387.3024)",1
2019/11/15/11:42:41.991277,179,1573785761,991108894,gps,0,1,36.3822025,127.3675598,88.2,"(24.2064, 0.0, 0.0, 0.0, 24.2064, 0.0, 0.0, 0.0, 387.3024)",1
2019/11/15/11:42:42.990215,180,1573785762,990010976,gps,0,1,36.3822025,127.3675602,88.2,"(24.2064, 0.0, 0.0, 0.0, 24.2064, 0.0, 0.0, 0.0, 387.3024)",1
2019/11/15/11:42:43.987881,181,1573785763,987490892,gps,0,1,36.3822025,127.3675603,88.1,"(24.2064, 0.0, 0.0, 0.0, 24.2064, 0.0, 0.0, 0.0, 387.3024)",1
2019/11/15/11:42:44.992142,182,1573785764,991966962,gps,0,1,36.382202,127.36756,88.2,"(24.2064, 0.0, 0.0, 0.0, 24.2064, 0.0, 0.0, 0.0, 387.3024)",1
2019/11/15/11:42:45.993512,183,1573785765,993200063,gps,0,1,36.38220183,127.36756,88.3,"(24.2064, 0.0, 0.0, 0.0, 24.2064, 0.0, 0.0, 0.0, 387.3024)",1
2019/11/15/11:42:46.990867,184,1573785766,990593910,gps,0,1,36.382202,127.3675602,88.2,"(24.2064, 0.0, 0.0, 0.0, 24.2064, 0.0, 0.0, 0.0, 387.3024)",1
2019/11/15/11:42:47.991252,185,1573785767,990935087,gps,0,1,36.382202,127.3675602,88.3,"(24.2064, 0.0, 0.0, 0.0, 24.2064, 0.0, 0.0, 0.0, 387.3024)",1
2019/11/15/11:42:48.991577,186,1573785768,991199016,gps,0,1,36.38220167,127.3675602,88.3,"(24.2064, 0.0, 0.0, 0.0, 24.2064, 0.0, 0.0, 0.0, 387.3024)",1
2019/11/15/11:42:49.990737,187,1573785769,990547895,gps,0,1,36.38220133,127.3675602,88.3,"(24.2064, 0.0, 0.0, 0.0, 24.2064, 0.0, 0.0, 0.0, 387.3024)",1
2019/11/15/11:42:51.001981,188,1573785771,1802921,gps,0,1,36.3822015,127.3675603,88.3,"(24.2064, 0.0, 0.0, 0.0, 24.2064, 0.0, 0.0, 0.0, 387.3024)",1
2019/11/15/11:42:51.991771,189,1573785771,991415023,gps,0,1,36.38220133,127.3675605,88.3,"(24.2064, 0.0, 0.0, 0.0, 24.2064, 0.0, 0.0, 0.0, 387.3024)",1
2019/11/15/11:42:52.993852,190,1573785772,993505954,gps,0,1,36.38220117,127.3675605,88.4,"(24.2064, 0.0, 0.0, 0.0, 24.2064, 0.0, 0.0, 0.0, 387.3024)",1
2019/11/15/11:42:53.991302,191,1573785773,991084098,gps,0,1,36.38220083,127.3675605,88.4,"(24.2064, 0.0, 0.0, 0.0, 24.2064, 0.0, 0.0, 0.0, 387.3024)",1
2019/11/15/11:42:54.996370,192,1573785774,995479106,gps,0,1,36.38220083,127.3675603,88.4,"(24.2064, 0.0, 0.0, 0.0, 24.2064, 0.0, 0.0, 0.0, 387.3024)",1
2019/11/15/11:42:55.993584,193,1573785775,993323087,gps,0,1,36.38220067,127.3675603,88.5,"(24.2064, 0.0, 0.0, 0.0, 24.2064, 0.0, 0.0, 0.0, 387.3024)",1
2019/11/15/11:42:56.994891,194,1573785776,994685888,gps,0,1,36.3822005,127.3675602,88.5,"(24.2064, 0.0, 0.0, 0.0, 24.2064, 0.0, 0.0, 0.0, 387.3024)",1
2019/11/15/11:42:57.994562,195,1573785777,994348049,gps,0,1,36.38220033,127.36756,88.5,"(24.2064, 0.0, 0.0, 0.0, 24.2064, 0.0, 0.0, 0.0, 387.3024)",1
2019/11/15/11:42:58.991469,196,1573785778,991235017,gps,0,1,36.38220033,127.36756,88.5,"(24.2064, 0.0, 0.0, 0.0, 24.2064, 0.0, 0.0, 0.0, 387.3024)",1
2019/11/15/11:42:59.996657,197,1573785779,996206998,gps,0,1,36.38220033,127.3675598,88.5,"(24.2064, 0.0, 0.0, 0.0, 24.2064, 0.0, 0.0, 0.0, 387.3024)",1
2019/11/15/11:43:00.992680,198,1573785780,992422103,gps,0,1,36.38220017,127.3675597,88.6,"(24.2064, 0.0, 0.0, 0.0, 24.2064, 0.0, 0.0, 0.0, 387.3024)",1
2019/11/15/11:43:01.991786,199,1573785781,991091966,gps,0,1,36.3822,127.3675595,88.6,"(24.2064, 0.0, 0.0, 0.0, 24.2064, 0.0, 0.0, 0.0, 387.3024)",1
2019/11/15/11:43:02.994114,200,1573785782,993881940,gps,0,1,36.38219983,127.3675593,88.6,"(24.2064, 0.0, 0.0, 0.0, 24.2064, 0.0, 0.0, 0.0, 387.3024)",1
2019/11/15/11:43:03.995287,201,1573785783,995040893,gps,0,1,36.3822,127.3675593,88.6,"(24.2064, 0.0, 0.0, 0.0, 24.2064, 0.0, 0.0, 0.0, 387.3024)",1
2019/11/15/11:43:04.996523,202,1573785784,996284008,gps,0,1,36.38220033,127.3675592,88.6,"(24.2064, 0.0, 0.0, 0.0, 24.2064, 0.0, 0.0, 0.0, 387.3024)",1
2019/11/15/11:43:05.996395,203,1573785785,996190071,gps,0,1,36.38220083,127.3675592,88.5,"(24.2064, 0.0, 0.0, 0.0, 24.2064, 0.0, 0.0, 0.0, 387.3024)",1
2019/11/15/11:43:06.994598,204,1573785786,994402885,gps,0,1,36.38220117,127.367559,88.4,"(24.2064, 0.0, 0.0, 0.0, 24.2064, 0.0, 0.0, 0.0, 387.3024)",1
2019/11/15/11:43:07.994173,205,1573785787,994013071,gps,0,1,36.38220117,127.3675587,88.4,"(24.2064, 0.0, 0.0, 0.0, 24.2064, 0.0, 0.0, 0.0, 387.3024)",1
2019/11/15/11:43:08.991792,206,1573785788,991590023,gps,0,1,36.38220167,127.3675587,88.3,"(24.2064, 0.0, 0.0, 0.0, 24.2064, 0.0, 0.0, 0.0, 387.3024)",1
2019/11/15/11:43:09.991941,207,1573785789,991710901,gps,0,1,36.38220217,127.3675585,88.2,"(24.2064, 0.0, 0.0, 0.0, 24.2064, 0.0, 0.0, 0.0, 387.3024)",1
2019/11/15/11:43:10.993867,208,1573785790,993659973,gps,0,1,36.38220267,127.3675585,88.1,"(24.2064, 0.0, 0.0, 0.0, 24.2064, 0.0, 0.0, 0.0, 387.3024)",1
2019/11/15/11:43:11.994837,209,1573785791,994680881,gps,0,1,36.382203,127.3675587,88,"(24.2064, 0.0, 0.0, 0.0, 24.2064, 0.0, 0.0, 0.0, 387.3024)",1
2019/11/15/11:43:12.989422,210,1573785792,989239931,gps,0,1,36.3822035,127.3675588,88,"(24.2064, 0.0, 0.0, 0.0, 24.2064, 0.0, 0.0, 0.0, 387.3024)",1
2019/11/15/11:43:13.992824,211,1573785793,992660045,gps,0,1,36.38220367,127.367559,87.9,"(24.2064, 0.0, 0.0, 0.0, 24.2064, 0.0, 0.0, 0.0, 387.3024)",1
2019/11/15/11:43:14.991870,212,1573785794,991688966,gps,0,1,36.38220383,127.3675593,87.9,"(24.2064, 0.0, 0.0, 0.0, 24.2064, 0.0, 0.0, 0.0, 387.3024)",1
2019/11/15/11:43:15.994455,213,1573785795,994235992,gps,0,1,36.38220417,127.3675597,87.8,"(24.2064, 0.0, 0.0, 0.0, 24.2064, 0.0, 0.0, 0.0, 387.3024)",1
2019/11/15/11:43:16.994839,214,1573785796,994652032,gps,0,1,36.38220433,127.3675602,87.7,"(24.2064, 0.0, 0.0, 0.0, 24.2064, 0.0, 0.0, 0.0, 387.3024)",1
2019/11/15/11:43:17.998774,215,1573785797,998594999,gps,0,1,36.38220433,127.3675603,87.7,"(24.2064, 0.0, 0.0, 0.0, 24.2064, 0.0, 0.0, 0.0, 387.3024)",1
2019/11/15/11:43:18.994792,216,1573785798,994612932,gps,0,1,36.38220433,127.3675602,87.7,"(24.2064, 0.0, 0.0, 0.0, 24.2064, 0.0, 0.0, 0.0, 387.3024)",1
2019/11/15/11:43:19.991668,217,1573785799,991533994,gps,0,1,36.38220417,127.3675602,87.8,"(24.2064, 0.0, 0.0, 0.0, 24.2064, 0.0, 0.0, 0.0, 387.3024)",1
2019/11/15/11:43:20.994411,218,1573785800,994167089,gps,0,1,36.38220433,127.3675607,87.7,"(24.2064, 0.0, 0.0, 0.0, 24.2064, 0.0, 0.0, 0.0, 387.3024)",1
2019/11/15/11:43:21.996930,219,1573785801,996692895,gps,0,1,36.3822045,127.3675608,87.7,"(24.2064, 0.0, 0.0, 0.0, 24.2064, 0.0, 0.0, 0.0, 387.3024)",1
2019/11/15/11:43:22.996524,220,1573785802,996248006,gps,0,1,36.3822045,127.3675608,87.7,"(24.2064, 0.0, 0.0, 0.0, 24.2064, 0.0, 0.0, 0.0, 387.3024)",1
2019/11/15/11:43:23.994024,221,1573785803,993809938,gps,0,1,36.38220483,127.3675607,87.7,"(24.2064, 0.0, 0.0, 0.0, 24.2064, 0.0, 0.0, 0.0, 387.3024)",1
2019/11/15/11:43:24.997369,222,1573785804,996923923,gps,0,1,36.382206,127.367561,87.5,"(24.2064, 0.0, 0.0, 0.0, 24.2064, 0.0, 0.0, 0.0, 387.3024)",1
2019/11/15/11:43:25.994403,223,1573785805,994205951,gps,0,1,36.38220667,127.3675613,87.5,"(24.2064, 0.0, 0.0, 0.0, 24.2064, 0.0, 0.0, 0.0, 387.3024)",1
2019/11/15/11:43:26.995709,224,1573785806,995285987,gps,0,1,36.38220667,127.3675612,87.5,"(24.2064, 0.0, 0.0, 0.0, 24.2064, 0.0, 0.0, 0.0, 387.3024)",1
2019/11/15/11:43:27.995876,225,1573785807,995577096,gps,0,1,36.38220883,127.3675605,87.4,"(24.2064, 0.0, 0.0, 0.0, 24.2064, 0.0, 0.0, 0.0, 387.3024)",1
2019/11/15/11:43:28.996239,226,1573785808,995892047,gps,0,1,36.38221283,127.3675602,87.4,"(24.2064, 0.0, 0.0, 0.0, 24.2064, 0.0, 0.0, 0.0, 387.3024)",1
2019/11/15/11:43:29.997132,227,1573785809,996844053,gps,0,1,36.38221733,127.36756,87.3,"(24.2064, 0.0, 0.0, 0.0, 24.2064, 0.0, 0.0, 0.0, 387.3024)",1
2019/11/15/11:43:30.995344,228,1573785810,994692087,gps,0,1,36.38222117,127.36756,87.2,"(24.2064, 0.0, 0.0, 0.0, 24.2064, 0.0, 0.0, 0.0, 387.3024)",1
2019/11/15/11:43:31.991805,229,1573785811,991552114,gps,0,1,36.38222483,127.36756,87.1,"(24.2064, 0.0, 0.0, 0.0, 24.2064, 0.0, 0.0, 0.0, 387.3024)",1
2019/11/15/11:43:32.994045,230,1573785812,993534088,gps,0,1,36.382229,127.3675602,87.1,"(24.2064, 0.0, 0.0, 0.0, 24.2064, 0.0, 0.0, 0.0, 387.3024)",1
2019/11/15/11:43:33.991665,231,1573785813,991456031,gps,0,1,36.38223317,127.3675603,87,"(24.2064, 0.0, 0.0, 0.0, 24.2064, 0.0, 0.0, 0.0, 387.3024)",1
2019/11/15/11:43:34.992882,232,1573785814,992672920,gps,0,1,36.38223717,127.3675602,87,"(24.2064, 0.0, 0.0, 0.0, 24.2064, 0.0, 0.0, 0.0, 387.3024)",1
2019/11/15/11:43:35.996810,233,1573785815,996552944,gps,0,1,36.38224183,127.3675598,86.9,"(24.2064, 0.0, 0.0, 0.0, 24.2064, 0.0, 0.0, 0.0, 387.3024)",1
2019/11/15/11:43:36.996210,234,1573785816,995990991,gps,0,1,36.3822475,127.3675603,86.9,"(24.2064, 0.0, 0.0, 0.0, 24.2064, 0.0, 0.0, 0.0, 387.3024)",1
2019/11/15/11:43:37.997108,235,1573785817,996881008,gps,0,1,36.3822535,127.3675605,86.8,"(24.2064, 0.0, 0.0, 0.0, 24.2064, 0.0, 0.0, 0.0, 387.3024)",1
2019/11/15/11:43:38.996246,236,1573785818,996087074,gps,0,1,36.38226,127.3675605,86.7,"(24.2064, 0.0, 0.0, 0.0, 24.2064, 0.0, 0.0, 0.0, 387.3024)",1
2019/11/15/11:43:39.993338,237,1573785819,993103981,gps,0,1,36.38226717,127.3675608,86.7,"(24.2064, 0.0, 0.0, 0.0, 24.2064, 0.0, 0.0, 0.0, 387.3024)",1
2019/11/15/11:43:40.995850,238,1573785820,995592117,gps,0,1,36.38227367,127.367561,86.6,"(24.2064, 0.0, 0.0, 0.0, 24.2064, 0.0, 0.0, 0.0, 387.3024)",1
2019/11/15/11:43:41.991093,239,1573785821,990864038,gps,0,1,36.38228067,127.3675615,86.4,"(24.2064, 0.0, 0.0, 0.0, 24.2064, 0.0, 0.0, 0.0, 387.3024)",1
2019/11/15/11:43:42.993608,240,1573785822,993400096,gps,0,1,36.38228733,127.3675618,86.4,"(24.2064, 0.0, 0.0, 0.0, 24.2064, 0.0, 0.0, 0.0, 387.3024)",1
2019/11/15/11:43:43.992394,241,1573785823,992199897,gps,0,1,36.3822945,127.367562,86.3,"(24.2064, 0.0, 0.0, 0.0, 24.2064, 0.0, 0.0, 0.0, 387.3024)",1
2019/11/15/11:43:44.993568,242,1573785824,993361949,gps,0,1,36.382301,127.3675618,86.2,"(24.2064, 0.0, 0.0, 0.0, 24.2064, 0.0, 0.0, 0.0, 387.3024)",1
2019/11/15/11:43:45.995908,243,1573785825,995779037,gps,0,1,36.3823075,127.3675622,86.1,"(24.2064, 0.0, 0.0, 0.0, 24.2064, 0.0, 0.0, 0.0, 387.3024)",1
2019/11/15/11:43:46.991361,244,1573785826,991177082,gps,0,1,36.38231467,127.3675618,86,"(54.760000000000005, 0.0, 0.0, 0.0, 54.760000000000005, 0.0, 0.0, 0.0, 876.1600000000001)",1
2019/11/15/11:43:47.993061,245,1573785827,992855072,gps,0,1,36.382322,127.3675608,86,"(54.760000000000005, 0.0, 0.0, 0.0, 54.760000000000005, 0.0, 0.0, 0.0, 876.1600000000001)",1
2019/11/15/11:43:48.991617,246,1573785828,991375923,gps,0,1,36.38232917,127.3675603,86,"(54.760000000000005, 0.0, 0.0, 0.0, 54.760000000000005, 0.0, 0.0, 0.0, 876.1600000000001)",1
2019/11/15/11:43:49.994641,247,1573785829,994395017,gps,0,1,36.38233733,127.3675603,85.9,"(54.760000000000005, 0.0, 0.0, 0.0, 54.760000000000005, 0.0, 0.0, 0.0, 876.1600000000001)",1
2019/11/15/11:43:51.006022,248,1573785831,5803108,gps,0,1,36.38234633,127.3675605,85.8,"(54.760000000000005, 0.0, 0.0, 0.0, 54.760000000000005, 0.0, 0.0, 0.0, 876.1600000000001)",1
2019/11/15/11:43:51.993819,249,1573785831,993593931,gps,0,1,36.38235517,127.367561,85.8,"(54.760000000000005, 0.0, 0.0, 0.0, 54.760000000000005, 0.0, 0.0, 0.0, 876.1600000000001)",1
2019/11/15/11:43:52.989751,250,1573785832,989510059,gps,0,1,36.3823645,127.367562,85.7,"(54.760000000000005, 0.0, 0.0, 0.0, 54.760000000000005, 0.0, 0.0, 0.0, 876.1600000000001)",1
2019/11/15/11:43:53.996276,251,1573785833,995927095,gps,0,1,36.38237367,127.3675618,85.8,"(24.2064, 0.0, 0.0, 0.0, 24.2064, 0.0, 0.0, 0.0, 387.3024)",1
2019/11/15/11:43:54.993282,252,1573785834,993016004,gps,0,1,36.38238233,127.3675613,85.8,"(24.2064, 0.0, 0.0, 0.0, 24.2064, 0.0, 0.0, 0.0, 387.3024)",1
2019/11/15/11:43:55.993126,253,1573785835,992899894,gps,0,1,36.382391,127.3675605,85.9,"(24.2064, 0.0, 0.0, 0.0, 24.2064, 0.0, 0.0, 0.0, 387.3024)",1
2019/11/15/11:43:56.994388,254,1573785836,994158029,gps,1,1,36.38239333,127.3675583,86.9,"(0.03422500000000001, 0.0, 0.0, 0.0, 0.03422500000000001, 0.0, 0.0, 0.0, 0.5476000000000002)",1
2019/11/15/11:43:57.994773,255,1573785837,994498968,gps,1,1,36.3823975,127.3675575,87.7,"(0.03422500000000001, 0.0, 0.0, 0.0, 0.03422500000000001, 0.0, 0.0, 0.0, 0.5476000000000002)",1
2019/11/15/11:43:58.997584,256,1573785838,997251033,gps,1,1,36.3824045,127.3675597,88,"(0.015129, 0.0, 0.0, 0.0, 0.015129, 0.0, 0.0, 0.0, 0.242064)",1
2019/11/15/11:43:59.990836,257,1573785839,990653991,gps,1,1,36.38241217,127.367563,88.1,"(0.015129, 0.0, 0.0, 0.0, 0.015129, 0.0, 0.0, 0.0, 0.242064)",1
2019/11/15/11:44:00.994945,258,1573785840,994427919,gps,1,1,36.38242033,127.3675662,88.2,"(0.015129, 0.0, 0.0, 0.0, 0.015129, 0.0, 0.0, 0.0, 0.242064)",1
2019/11/15/11:44:01.995403,259,1573785841,994992971,gps,1,1,36.38242867,127.367568,88.3,"(0.015129, 0.0, 0.0, 0.0, 0.015129, 0.0, 0.0, 0.0, 0.242064)",1
2019/11/15/11:44:02.995111,260,1573785842,994920015,gps,1,1,36.38243883,127.3675713,88.3,"(0.015129, 0.0, 0.0, 0.0, 0.015129, 0.0, 0.0, 0.0, 0.242064)",1
2019/11/15/11:44:03.995689,261,1573785843,994996070,gps,1,1,36.38244683,127.3675728,88.7,"(0.015129, 0.0, 0.0, 0.0, 0.015129, 0.0, 0.0, 0.0, 0.242064)",1
2019/11/15/11:44:04.994911,262,1573785844,994729042,gps,1,1,36.3824545,127.3675745,89,"(0.015129, 0.0, 0.0, 0.0, 0.015129, 0.0, 0.0, 0.0, 0.242064)",1
2019/11/15/11:44:05.997114,263,1573785845,996916055,gps,1,1,36.38246333,127.3675758,89.1,"(0.015129, 0.0, 0.0, 0.0, 0.015129, 0.0, 0.0, 0.0, 0.242064)",1
2019/11/15/11:44:06.995175,264,1573785846,994926929,gps,1,1,36.38247133,127.3675752,89.2,"(0.015129, 0.0, 0.0, 0.0, 0.015129, 0.0, 0.0, 0.0, 0.242064)",1
2019/11/15/11:44:07.996545,265,1573785847,996205091,gps,1,1,36.38247917,127.3675765,89.3,"(0.015129, 0.0, 0.0, 0.0, 0.015129, 0.0, 0.0, 0.0, 0.242064)",1
2019/11/15/11:44:08.999629,266,1573785848,999453067,gps,1,1,36.382487,127.367577,89.7,"(0.015129, 0.0, 0.0, 0.0, 0.015129, 0.0, 0.0, 0.0, 0.242064)",1
2019/11/15/11:44:09.998610,267,1573785849,998416900,gps,1,1,36.3824955,127.3675783,89.6,"(0.015129, 0.0, 0.0, 0.0, 0.015129, 0.0, 0.0, 0.0, 0.242064)",1
2019/11/15/11:44:10.993419,268,1573785850,993164062,gps,1,1,36.38250417,127.3675792,89.6,"(0.015129, 0.0, 0.0, 0.0, 0.015129, 0.0, 0.0, 0.0, 0.242064)",1
2019/11/15/11:44:11.996286,269,1573785851,996059894,gps,1,1,36.3825115,127.3675782,90,"(0.015129, 0.0, 0.0, 0.0, 0.015129, 0.0, 0.0, 0.0, 0.242064)",1
2019/11/15/11:44:12.996436,270,1573785852,996103048,gps,1,1,36.38252233,127.367581,89.5,"(0.015129, 0.0, 0.0, 0.0, 0.015129, 0.0, 0.0, 0.0, 0.242064)",1
2019/11/15/11:44:13.997417,271,1573785853,997212886,gps,1,1,36.38253067,127.3675818,89.5,"(0.03459600000000001, 0.0, 0.0, 0.0, 0.03459600000000001, 0.0, 0.0, 0.0, 0.5535360000000001)",1
2019/11/15/11:44:14.995175,272,1573785854,995038032,gps,1,1,36.38253817,127.3675808,89.5,"(0.03459600000000001, 0.0, 0.0, 0.0, 0.03459600000000001, 0.0, 0.0, 0.0, 0.5535360000000001)",1
2019/11/15/11:44:15.992508,273,1573785855,992326974,gps,1,1,36.3825455,127.3675802,89.7,"(0.03459600000000001, 0.0, 0.0, 0.0, 0.03459600000000001, 0.0, 0.0, 0.0, 0.5535360000000001)",1
2019/11/15/11:44:16.993010,274,1573785856,992820024,gps,1,1,36.38255633,127.3675828,89.2,"(0.03459600000000001, 0.0, 0.0, 0.0, 0.03459600000000001, 0.0, 0.0, 0.0, 0.5535360000000001)",1
2019/11/15/11:44:17.995907,275,1573785857,995702981,gps,1,1,36.38256583,127.3675828,88.9,"(0.03459600000000001, 0.0, 0.0, 0.0, 0.03459600000000001, 0.0, 0.0, 0.0, 0.5535360000000001)",1
2019/11/15/11:44:18.994557,276,1573785858,994329929,gps,1,1,36.38257717,127.3675845,88.2,"(0.03459600000000001, 0.0, 0.0, 0.0, 0.03459600000000001, 0.0, 0.0, 0.0, 0.5535360000000001)",1
2019/11/15/11:44:19.993478,277,1573785859,993259906,gps,1,1,36.38258767,127.3675858,87.9,"(0.03459600000000001, 0.0, 0.0, 0.0, 0.03459600000000001, 0.0, 0.0, 0.0, 0.5535360000000001)",1
2019/11/15/11:44:20.992293,278,1573785860,992065906,gps,1,1,36.382598,127.3675868,87.5,"(0.03459600000000001, 0.0, 0.0, 0.0, 0.03459600000000001, 0.0, 0.0, 0.0, 0.5535360000000001)",1
2019/11/15/11:44:21.990806,279,1573785861,990561962,gps,1,1,36.382609,127.3675882,87,"(0.015375999999999999, 0.0, 0.0, 0.0, 0.015375999999999999, 0.0, 0.0, 0.0, 0.24601599999999998)",1
2019/11/15/11:44:22.993765,280,1573785862,993577957,gps,1,1,36.38261967,127.3675902,86.7,"(0.015129, 0.0, 0.0, 0.0, 0.015129, 0.0, 0.0, 0.0, 0.242064)",1
2019/11/15/11:44:23.992306,281,1573785863,992100000,gps,1,1,36.38262867,127.3675898,87,"(0.015129, 0.0, 0.0, 0.0, 0.015129, 0.0, 0.0, 0.0, 0.242064)",1
2019/11/15/11:44:24.997345,282,1573785864,997140884,gps,1,1,36.38263867,127.36759,86.6,"(0.015129, 0.0, 0.0, 0.0, 0.015129, 0.0, 0.0, 0.0, 0.242064)",1
2019/11/15/11:44:25.991668,283,1573785865,991486072,gps,1,1,36.38264583,127.3675885,87.4,"(0.015129, 0.0, 0.0, 0.0, 0.015129, 0.0, 0.0, 0.0, 0.242064)",1
2019/11/15/11:44:26.992314,284,1573785866,992080926,gps,1,1,36.38265183,127.3675862,88,"(0.015129, 0.0, 0.0, 0.0, 0.015129, 0.0, 0.0, 0.0, 0.242064)",1
2019/11/15/11:44:27.991163,285,1573785867,990928888,gps,1,1,36.38265783,127.3675832,88.7,"(0.015129, 0.0, 0.0, 0.0, 0.015129, 0.0, 0.0, 0.0, 0.242064)",1
2019/11/15/11:44:28.991322,286,1573785868,991115093,gps,1,1,36.382664,127.3675808,89.3,"(0.015129, 0.0, 0.0, 0.0, 0.015129, 0.0, 0.0, 0.0, 0.242064)",1
2019/11/15/11:44:29.993028,287,1573785869,992813110,gps,1,1,36.38267183,127.3675805,89.8,"(0.015129, 0.0, 0.0, 0.0, 0.015129, 0.0, 0.0, 0.0, 0.242064)",1
2019/11/15/11:44:30.992328,288,1573785870,992156982,gps,0,1,36.38268083,127.3675788,89.8,"(24.2064, 0.0, 0.0, 0.0, 24.2064, 0.0, 0.0, 0.0, 387.3024)",1
2019/11/15/11:44:31.993714,289,1573785871,993344068,gps,0,1,36.38268933,127.367577,89.5,"(24.2064, 0.0, 0.0, 0.0, 24.2064, 0.0, 0.0, 0.0, 387.3024)",1
2019/11/15/11:44:32.989476,290,1573785872,989151000,gps,0,1,36.3826965,127.367576,90.1,"(24.2064, 0.0, 0.0, 0.0, 24.2064, 0.0, 0.0, 0.0, 387.3024)",1
2019/11/15/11:44:33.995760,291,1573785873,995390892,gps,0,1,36.3827035,127.3675745,90,"(24.2064, 0.0, 0.0, 0.0, 24.2064, 0.0, 0.0, 0.0, 387.3024)",1
2019/11/15/11:44:34.991394,292,1573785874,991199016,gps,0,1,36.38271,127.367576,89.5,"(24.2064, 0.0, 0.0, 0.0, 24.2064, 0.0, 0.0, 0.0, 387.3024)",1
2019/11/15/11:44:35.990907,293,1573785875,990679979,gps,0,1,36.38271867,127.367576,89.2,"(24.2064, 0.0, 0.0, 0.0, 24.2064, 0.0, 0.0, 0.0, 387.3024)",1
2019/11/15/11:44:36.992699,294,1573785876,992441892,gps,0,1,36.38272717,127.3675805,88.2,"(24.2064, 0.0, 0.0, 0.0, 24.2064, 0.0, 0.0, 0.0, 387.3024)",1
2019/11/15/11:44:37.993401,295,1573785877,993050098,gps,0,1,36.38273717,127.3675828,87.8,"(24.2064, 0.0, 0.0, 0.0, 24.2064, 0.0, 0.0, 0.0, 387.3024)",1
2019/11/15/11:44:38.992715,296,1573785878,992470979,gps,0,1,36.3827465,127.3675842,87.4,"(24.2064, 0.0, 0.0, 0.0, 24.2064, 0.0, 0.0, 0.0, 387.3024)",1
2019/11/15/11:44:39.991543,297,1573785879,991291999,gps,0,1,36.3827555,127.3675832,87.3,"(24.2064, 0.0, 0.0, 0.0, 24.2064, 0.0, 0.0, 0.0, 387.3024)",1
2019/11/15/11:44:40.993035,298,1573785880,992842912,gps,0,1,36.38276533,127.3675827,87,"(24.2064, 0.0, 0.0, 0.0, 24.2064, 0.0, 0.0, 0.0, 387.3024)",1
2019/11/15/11:44:41.995055,299,1573785881,994854927,gps,0,1,36.3827725,127.3675808,87.2,"(24.2064, 0.0, 0.0, 0.0, 24.2064, 0.0, 0.0, 0.0, 387.3024)",1
2019/11/15/11:44:42.994079,300,1573785882,993844032,gps,0,1,36.382782,127.3675807,87,"(24.2064, 0.0, 0.0, 0.0, 24.2064, 0.0, 0.0, 0.0, 387.3024)",1
2019/11/15/11:44:43.993862,301,1573785883,993580102,gps,0,1,36.38279017,127.3675812,86.6,"(24.2064, 0.0, 0.0, 0.0, 24.2064, 0.0, 0.0, 0.0, 387.3024)",1
2019/11/15/11:44:44.994047,302,1573785884,993815898,gps,0,1,36.38279917,127.3675808,86.6,"(24.2064, 0.0, 0.0, 0.0, 24.2064, 0.0, 0.0, 0.0, 387.3024)",1
2019/11/15/11:44:45.996045,303,1573785885,995771884,gps,0,1,36.38280867,127.3675803,86.8,"(18.3184, 0.0, 0.0, 0.0, 18.3184, 0.0, 0.0, 0.0, 293.0944)",1
2019/11/15/11:44:46.996051,304,1573785886,995385885,gps,0,1,36.38281733,127.3675803,86.8,"(24.2064, 0.0, 0.0, 0.0, 24.2064, 0.0, 0.0, 0.0, 387.3024)",1
2019/11/15/11:44:47.995780,305,1573785887,995582103,gps,0,1,36.38282767,127.3675807,86.6,"(18.3184, 0.0, 0.0, 0.0, 18.3184, 0.0, 0.0, 0.0, 293.0944)",1
2019/11/15/11:44:48.997126,306,1573785888,996922969,gps,0,1,36.38283733,127.3675813,86.4,"(18.3184, 0.0, 0.0, 0.0, 18.3184, 0.0, 0.0, 0.0, 293.0944)",1
2019/11/15/11:44:49.996594,307,1573785889,996423959,gps,0,1,36.3828455,127.3675797,86.6,"(18.3184, 0.0, 0.0, 0.0, 18.3184, 0.0, 0.0, 0.0, 293.0944)",1
2019/11/15/11:44:51.005379,308,1573785891,5151033,gps,0,1,36.38285583,127.3675788,86.4,"(18.3184, 0.0, 0.0, 0.0, 18.3184, 0.0, 0.0, 0.0, 293.0944)",1
2019/11/15/11:44:51.996569,309,1573785891,996376991,gps,0,1,36.3828645,127.367578,86.4,"(18.3184, 0.0, 0.0, 0.0, 18.3184, 0.0, 0.0, 0.0, 293.0944)",1
2019/11/15/11:44:52.995272,310,1573785892,995037078,gps,0,1,36.38287333,127.3675778,86.3,"(18.3184, 0.0, 0.0, 0.0, 18.3184, 0.0, 0.0, 0.0, 293.0944)",1
2019/11/15/11:44:54.002750,311,1573785894,2557992,gps,0,1,36.382881,127.3675785,86.4,"(18.3184, 0.0, 0.0, 0.0, 18.3184, 0.0, 0.0, 0.0, 293.0944)",1
2019/11/15/11:44:54.997693,312,1573785894,997474908,gps,0,1,36.382887,127.3675772,86.4,"(18.3184, 0.0, 0.0, 0.0, 18.3184, 0.0, 0.0, 0.0, 293.0944)",1
2019/11/15/11:44:55.998383,313,1573785895,998181104,gps,1,1,36.38289517,127.3675772,86.1,"(0.011449000000000003, 0.0, 0.0, 0.0, 0.011449000000000003, 0.0, 0.0, 0.0, 0.18318400000000004)",1
2019/11/15/11:44:57.000579,314,1573785897,392913,gps,1,1,36.38290133,127.3675775,86,"(0.011449000000000003, 0.0, 0.0, 0.0, 0.011449000000000003, 0.0, 0.0, 0.0, 0.18318400000000004)",1
2019/11/15/11:44:57.996152,315,1573785897,995971918,gps,1,1,36.38290733,127.3675802,86,"(0.011449000000000003, 0.0, 0.0, 0.0, 0.011449000000000003, 0.0, 0.0, 0.0, 0.18318400000000004)",1
2019/11/15/11:44:58.999322,316,1573785898,999135017,gps,1,1,36.38291533,127.3675855,85.6,"(0.011449000000000003, 0.0, 0.0, 0.0, 0.011449000000000003, 0.0, 0.0, 0.0, 0.18318400000000004)",1
2019/11/15/11:45:00.001855,317,1573785900,1682996,gps,1,1,36.38292133,127.3675918,85.2,"(0.011449000000000003, 0.0, 0.0, 0.0, 0.011449000000000003, 0.0, 0.0, 0.0, 0.18318400000000004)",1
2019/11/15/11:45:00.999232,318,1573785900,998985052,gps,1,1,36.382926,127.367598,85.1,"(0.011449000000000003, 0.0, 0.0, 0.0, 0.011449000000000003, 0.0, 0.0, 0.0, 0.18318400000000004)",1
2019/11/15/11:45:01.995106,319,1573785901,994846105,gps,1,1,36.38292767,127.3676052,84.9,"(0.011449000000000003, 0.0, 0.0, 0.0, 0.011449000000000003, 0.0, 0.0, 0.0, 0.18318400000000004)",1
2019/11/15/11:45:02.999244,320,1573785902,999022006,gps,1,1,36.38292867,127.3676127,84.7,"(0.011449000000000003, 0.0, 0.0, 0.0, 0.011449000000000003, 0.0, 0.0, 0.0, 0.18318400000000004)",1
2019/11/15/11:45:03.997541,321,1573785903,997328042,gps,1,1,36.38293133,127.3676183,84.5,"(0.011449000000000003, 0.0, 0.0, 0.0, 0.011449000000000003, 0.0, 0.0, 0.0, 0.18318400000000004)",1
2019/11/15/11:45:04.999334,322,1573785904,999126911,gps,1,1,36.38293467,127.36762,84.5,"(0.011449000000000003, 0.0, 0.0, 0.0, 0.011449000000000003, 0.0, 0.0, 0.0, 0.18318400000000004)",1
2019/11/15/11:45:06.000360,323,1573785906,82015,gps,1,1,36.3829355,127.3676178,84.3,"(0.011449000000000003, 0.0, 0.0, 0.0, 0.011449000000000003, 0.0, 0.0, 0.0, 0.18318400000000004)",1
2019/11/15/11:45:06.999173,324,1573785906,998987913,gps,1,1,36.38293617,127.3676163,84.2,"(0.011449000000000003, 0.0, 0.0, 0.0, 0.011449000000000003, 0.0, 0.0, 0.0, 0.18318400000000004)",1
2019/11/15/11:45:08.000466,325,1573785908,66995,gps,1,1,36.382938,127.3676155,84.2,"(0.011449000000000003, 0.0, 0.0, 0.0, 0.011449000000000003, 0.0, 0.0, 0.0, 0.18318400000000004)",1
2019/11/15/11:45:08.995540,326,1573785908,995290994,gps,1,1,36.3829395,127.367614,84.3,"(0.011449000000000003, 0.0, 0.0, 0.0, 0.011449000000000003, 0.0, 0.0, 0.0, 0.18318400000000004)",1
2019/11/15/11:45:09.996939,327,1573785909,996709108,gps,1,1,36.38293917,127.3676128,84.3,"(0.011449000000000003, 0.0, 0.0, 0.0, 0.011449000000000003, 0.0, 0.0, 0.0, 0.18318400000000004)",1
2019/11/15/11:45:10.997828,328,1573785910,997620105,gps,1,1,36.38293967,127.3676112,84.4,"(0.011449000000000003, 0.0, 0.0, 0.0, 0.011449000000000003, 0.0, 0.0, 0.0, 0.18318400000000004)",1
2019/11/15/11:45:12.000616,329,1573785912,397920,gps,1,1,36.3829405,127.3676095,84.2,"(0.011449000000000003, 0.0, 0.0, 0.0, 0.011449000000000003, 0.0, 0.0, 0.0, 0.18318400000000004)",1
2019/11/15/11:45:12.998353,330,1573785912,998171091,gps,1,1,36.38294317,127.3676092,84.1,"(0.011449000000000003, 0.0, 0.0, 0.0, 0.011449000000000003, 0.0, 0.0, 0.0, 0.18318400000000004)",1
2019/11/15/11:45:13.996977,331,1573785913,996680974,gps,1,1,36.382949,127.3676097,84.2,"(0.011449000000000003, 0.0, 0.0, 0.0, 0.011449000000000003, 0.0, 0.0, 0.0, 0.18318400000000004)",1
2019/11/15/11:45:14.996384,332,1573785914,996211051,gps,1,1,36.3829545,127.3676102,84.1,"(0.011449000000000003, 0.0, 0.0, 0.0, 0.011449000000000003, 0.0, 0.0, 0.0, 0.18318400000000004)",1
2019/11/15/11:45:15.996710,333,1573785915,996514081,gps,1,1,36.38296017,127.3676107,83.9,"(0.011449000000000003, 0.0, 0.0, 0.0, 0.011449000000000003, 0.0, 0.0, 0.0, 0.18318400000000004)",1
2019/11/15/11:45:17.001406,334,1573785917,1246929,gps,1,1,36.38296767,127.3676118,83.8,"(0.011449000000000003, 0.0, 0.0, 0.0, 0.011449000000000003, 0.0, 0.0, 0.0, 0.18318400000000004)",1
2019/11/15/11:45:18.000806,335,1573785918,355005,gps,0,1,36.3829745,127.3676128,83.8,"(18.3184, 0.0, 0.0, 0.0, 18.3184, 0.0, 0.0, 0.0, 293.0944)",1
2019/11/15/11:45:18.997063,336,1573785918,996767044,gps,0,1,36.38298183,127.3676137,83.8,"(18.3184, 0.0, 0.0, 0.0, 18.3184, 0.0, 0.0, 0.0, 293.0944)",1
2019/11/15/11:45:19.994300,337,1573785919,994127035,gps,0,1,36.3829895,127.367614,83.9,"(18.3184, 0.0, 0.0, 0.0, 18.3184, 0.0, 0.0, 0.0, 293.0944)",1
2019/11/15/11:45:21.000589,338,1573785921,406026,gps,0,1,36.38299717,127.367615,83.9,"(18.3184, 0.0, 0.0, 0.0, 18.3184, 0.0, 0.0, 0.0, 293.0944)",1
2019/11/15/11:45:21.996919,339,1573785921,996742010,gps,0,1,36.3830065,127.3676142,84,"(18.3184, 0.0, 0.0, 0.0, 18.3184, 0.0, 0.0, 0.0, 293.0944)",1
2019/11/15/11:45:22.997752,340,1573785922,997550964,gps,0,1,36.38301433,127.3676138,84.1,"(18.3184, 0.0, 0.0, 0.0, 18.3184, 0.0, 0.0, 0.0, 293.0944)",1
2019/11/15/11:45:24.001705,341,1573785924,1405954,gps,0,1,36.383022,127.3676138,84.2,"(18.3184, 0.0, 0.0, 0.0, 18.3184, 0.0, 0.0, 0.0, 293.0944)",1
2019/11/15/11:45:24.999480,342,1573785924,999123096,gps,0,1,36.383028,127.367616,84.1,"(18.3184, 0.0, 0.0, 0.0, 18.3184, 0.0, 0.0, 0.0, 293.0944)",1
2019/11/15/11:45:26.000763,343,1573785926,550985,gps,0,1,36.38303383,127.36762,84.1,"(18.3184, 0.0, 0.0, 0.0, 18.3184, 0.0, 0.0, 0.0, 293.0944)",1
2019/11/15/11:45:26.997756,344,1573785926,997569084,gps,0,1,36.3830395,127.3676237,84.2,"(18.3184, 0.0, 0.0, 0.0, 18.3184, 0.0, 0.0, 0.0, 293.0944)",1
2019/11/15/11:45:27.997416,345,1573785927,997236013,gps,0,1,36.38304433,127.3676267,84.2,"(18.3184, 0.0, 0.0, 0.0, 18.3184, 0.0, 0.0, 0.0, 293.0944)",1
2019/11/15/11:45:28.997877,346,1573785928,997632980,gps,0,1,36.38304983,127.3676292,84.2,"(18.3184, 0.0, 0.0, 0.0, 18.3184, 0.0, 0.0, 0.0, 293.0944)",1
2019/11/15/11:45:30.001286,347,1573785930,1051902,gps,1,1,36.38305517,127.3676313,84.2,"(0.011449000000000003, 0.0, 0.0, 0.0, 0.011449000000000003, 0.0, 0.0, 0.0, 0.18318400000000004)",1
2019/11/15/11:45:30.993795,348,1573785930,993597984,gps,1,1,36.38305967,127.3676327,84.3,"(0.011449000000000003, 0.0, 0.0, 0.0, 0.011449000000000003, 0.0, 0.0, 0.0, 0.18318400000000004)",1
2019/11/15/11:45:32.000268,349,1573785932,61988,gps,1,1,36.38306033,127.3676343,84.4,"(0.011449000000000003, 0.0, 0.0, 0.0, 0.011449000000000003, 0.0, 0.0, 0.0, 0.18318400000000004)",1
2019/11/15/11:45:32.998559,350,1573785932,998326063,gps,1,1,36.38305883,127.3676357,84.6,"(0.011449000000000003, 0.0, 0.0, 0.0, 0.011449000000000003, 0.0, 0.0, 0.0, 0.18318400000000004)",1
2019/11/15/11:45:33.999172,351,1573785933,998909950,gps,1,1,36.38305817,127.3676367,84.7,"(0.011449000000000003, 0.0, 0.0, 0.0, 0.011449000000000003, 0.0, 0.0, 0.0, 0.18318400000000004)",1
2019/11/15/11:45:34.999422,352,1573785934,999216079,gps,1,1,36.3830575,127.3676362,84.8,"(0.011449000000000003, 0.0, 0.0, 0.0, 0.011449000000000003, 0.0, 0.0, 0.0, 0.18318400000000004)",1
2019/11/15/11:45:36.002653,353,1573785936,2412080,gps,1,1,36.3830575,127.3676368,84.9,"(0.011449000000000003, 0.0, 0.0, 0.0, 0.011449000000000003, 0.0, 0.0, 0.0, 0.18318400000000004)",1
2019/11/15/11:45:36.999705,354,1573785936,999552965,gps,1,1,36.38305817,127.3676365,85,"(0.011449000000000003, 0.0, 0.0, 0.0, 0.011449000000000003, 0.0, 0.0, 0.0, 0.18318400000000004)",1
2019/11/15/11:45:37.995792,355,1573785937,995578050,gps,1,1,36.383061,127.3676352,85.1,"(0.015129, 0.0, 0.0, 0.0, 0.015129, 0.0, 0.0, 0.0, 0.242064)",1
2019/11/15/11:45:39.000477,356,1573785939,190973,gps,1,1,36.38306667,127.3676317,85.2,"(0.011449000000000003, 0.0, 0.0, 0.0, 0.011449000000000003, 0.0, 0.0, 0.0, 0.18318400000000004)",1
2019/11/15/11:45:40.003122,357,1573785940,2842903,gps,1,1,36.38307433,127.3676277,84.8,"(0.011449000000000003, 0.0, 0.0, 0.0, 0.011449000000000003, 0.0, 0.0, 0.0, 0.18318400000000004)",1
2019/11/15/11:45:41.001433,358,1573785941,1220941,gps,1,1,36.383081,127.3676227,84.9,"(0.011449000000000003, 0.0, 0.0, 0.0, 0.011449000000000003, 0.0, 0.0, 0.0, 0.18318400000000004)",1
2019/11/15/11:45:42.000295,359,1573785942,97036,gps,1,1,36.38308867,127.3676195,84.9,"(0.011449000000000003, 0.0, 0.0, 0.0, 0.011449000000000003, 0.0, 0.0, 0.0, 0.18318400000000004)",1
2019/11/15/11:45:43.000612,360,1573785943,448942,gps,1,1,36.383096,127.3676168,84.8,"(0.011449000000000003, 0.0, 0.0, 0.0, 0.011449000000000003, 0.0, 0.0, 0.0, 0.18318400000000004)",1
2019/11/15/11:45:43.999024,361,1573785943,998780965,gps,1,1,36.383103,127.367616,84.9,"(0.011449000000000003, 0.0, 0.0, 0.0, 0.011449000000000003, 0.0, 0.0, 0.0, 0.18318400000000004)",1
2019/11/15/11:45:44.997170,362,1573785944,996990919,gps,1,1,36.38311167,127.3676178,85,"(0.011449000000000003, 0.0, 0.0, 0.0, 0.011449000000000003, 0.0, 0.0, 0.0, 0.18318400000000004)",1
2019/11/15/11:45:45.997868,363,1573785945,997612953,gps,1,1,36.38312,127.3676192,85,"(0.011449000000000003, 0.0, 0.0, 0.0, 0.011449000000000003, 0.0, 0.0, 0.0, 0.18318400000000004)",1
2019/11/15/11:45:47.000178,364,1573785946,999516963,gps,1,1,36.38312833,127.3676197,85.2,"(0.011449000000000003, 0.0, 0.0, 0.0, 0.011449000000000003, 0.0, 0.0, 0.0, 0.18318400000000004)",1
2019/11/15/11:45:48.002203,365,1573785948,1964092,gps,1,1,36.38313733,127.3676195,85.3,"(0.011449000000000003, 0.0, 0.0, 0.0, 0.011449000000000003, 0.0, 0.0, 0.0, 0.18318400000000004)",1
2019/11/15/11:45:48.999369,366,1573785948,998749971,gps,1,1,36.38314667,127.3676195,85.4,"(0.011449000000000003, 0.0, 0.0, 0.0, 0.011449000000000003, 0.0, 0.0, 0.0, 0.18318400000000004)",1
2019/11/15/11:45:49.999277,367,1573785949,999087095,gps,1,1,36.38315617,127.3676195,85.4,"(0.011449000000000003, 0.0, 0.0, 0.0, 0.011449000000000003, 0.0, 0.0, 0.0, 0.18318400000000004)",1
2019/11/15/11:45:51.012133,368,1573785951,11924028,gps,1,1,36.3831645,127.3676198,85.6,"(0.011449000000000003, 0.0, 0.0, 0.0, 0.011449000000000003, 0.0, 0.0, 0.0, 0.18318400000000004)",1
2019/11/15/11:45:51.999108,369,1573785951,998837947,gps,1,1,36.383173,127.367621,85.7,"(0.011449000000000003, 0.0, 0.0, 0.0, 0.011449000000000003, 0.0, 0.0, 0.0, 0.18318400000000004)",1
2019/11/15/11:45:53.001555,370,1573785953,1007080,gps,1,1,36.38318133,127.3676217,85.9,"(0.011449000000000003, 0.0, 0.0, 0.0, 0.011449000000000003, 0.0, 0.0, 0.0, 0.18318400000000004)",1
2019/11/15/11:45:54.000264,371,1573785953,999974012,gps,1,1,36.38318967,127.3676222,85.9,"(0.011449000000000003, 0.0, 0.0, 0.0, 0.011449000000000003, 0.0, 0.0, 0.0, 0.18318400000000004)",1
2019/11/15/11:45:54.999397,372,1573785954,999160051,gps,1,1,36.38319833,127.3676225,86,"(0.011449000000000003, 0.0, 0.0, 0.0, 0.011449000000000003, 0.0, 0.0, 0.0, 0.18318400000000004)",1
2019/11/15/11:45:55.998847,373,1573785955,998648881,gps,1,1,36.38320617,127.3676228,86.2,"(0.011449000000000003, 0.0, 0.0, 0.0, 0.011449000000000003, 0.0, 0.0, 0.0, 0.18318400000000004)",1
2019/11/15/11:45:56.999796,374,1573785956,999636888,gps,1,1,36.383214,127.3676223,86.3,"(0.011449000000000003, 0.0, 0.0, 0.0, 0.011449000000000003, 0.0, 0.0, 0.0, 0.18318400000000004)",1
2019/11/15/11:45:58.000678,375,1573785958,468969,gps,1,1,36.38322183,127.3676218,86.5,"(0.011449000000000003, 0.0, 0.0, 0.0, 0.011449000000000003, 0.0, 0.0, 0.0, 0.18318400000000004)",1
2019/11/15/11:45:59.000514,376,1573785959,188112,gps,1,1,36.383229,127.3676218,86.7,"(0.015129, 0.0, 0.0, 0.0, 0.015129, 0.0, 0.0, 0.0, 0.242064)",1
2019/11/15/11:45:59.995999,377,1573785959,995815992,gps,1,1,36.38323633,127.3676213,86.3,"(0.011449000000000003, 0.0, 0.0, 0.0, 0.011449000000000003, 0.0, 0.0, 0.0, 0.18318400000000004)",1
2019/11/15/11:46:01.000318,378,1573785961,82969,gps,1,1,36.38324433,127.3676208,85.7,"(0.011449000000000003, 0.0, 0.0, 0.0, 0.011449000000000003, 0.0, 0.0, 0.0, 0.18318400000000004)",1
2019/11/15/11:46:01.998866,379,1573785961,998645067,gps,1,1,36.38325083,127.3676207,85.2,"(0.011449000000000003, 0.0, 0.0, 0.0, 0.011449000000000003, 0.0, 0.0, 0.0, 0.18318400000000004)",1
2019/11/15/11:46:02.997060,380,1573785962,996793985,gps,1,1,36.383257,127.3676203,85.1,"(0.015129, 0.0, 0.0, 0.0, 0.015129, 0.0, 0.0, 0.0, 0.242064)",1
2019/11/15/11:46:03.999438,381,1573785963,999242067,gps,1,1,36.38326383,127.3676207,85,"(0.011449000000000003, 0.0, 0.0, 0.0, 0.011449000000000003, 0.0, 0.0, 0.0, 0.18318400000000004)",1
2019/11/15/11:46:04.999099,382,1573785964,998857975,gps,1,1,36.38327067,127.3676203,84.8,"(0.011449000000000003, 0.0, 0.0, 0.0, 0.011449000000000003, 0.0, 0.0, 0.0, 0.18318400000000004)",1
2019/11/15/11:46:06.001114,383,1573785966,857114,gps,1,1,36.38327717,127.367619,84.7,"(0.011449000000000003, 0.0, 0.0, 0.0, 0.011449000000000003, 0.0, 0.0, 0.0, 0.18318400000000004)",1
2019/11/15/11:46:06.998019,384,1573785966,997765064,gps,1,1,36.38328417,127.3676162,84.2,"(0.011449000000000003, 0.0, 0.0, 0.0, 0.011449000000000003, 0.0, 0.0, 0.0, 0.18318400000000004)",1
2019/11/15/11:46:07.996285,385,1573785967,996072053,gps,1,1,36.38329033,127.3676135,84.1,"(0.011449000000000003, 0.0, 0.0, 0.0, 0.011449000000000003, 0.0, 0.0, 0.0, 0.18318400000000004)",1
2019/11/15/11:46:08.997615,386,1573785968,997412919,gps,1,1,36.383297,127.3676113,84.1,"(0.011449000000000003, 0.0, 0.0, 0.0, 0.011449000000000003, 0.0, 0.0, 0.0, 0.18318400000000004)",1
2019/11/15/11:46:09.996160,387,1573785969,995939970,gps,1,1,36.3833045,127.3676112,83.6,"(0.011449000000000003, 0.0, 0.0, 0.0, 0.011449000000000003, 0.0, 0.0, 0.0, 0.18318400000000004)",1
2019/11/15/11:46:10.993142,388,1573785970,992888927,gps,1,1,36.383313,127.3676112,83.4,"(0.011449000000000003, 0.0, 0.0, 0.0, 0.011449000000000003, 0.0, 0.0, 0.0, 0.18318400000000004)",1
2019/11/15/11:46:11.999389,389,1573785971,999165058,gps,1,1,36.38332283,127.3676097,83.2,"(0.011449000000000003, 0.0, 0.0, 0.0, 0.011449000000000003, 0.0, 0.0, 0.0, 0.18318400000000004)",1
2019/11/15/11:46:12.995887,390,1573785972,995719909,gps,1,1,36.383333,127.367607,82.9,"(0.011449000000000003, 0.0, 0.0, 0.0, 0.011449000000000003, 0.0, 0.0, 0.0, 0.18318400000000004)",1
2019/11/15/11:46:13.996128,391,1573785973,995878934,gps,1,1,36.38334633,127.3676048,82.5,"(0.011449000000000003, 0.0, 0.0, 0.0, 0.011449000000000003, 0.0, 0.0, 0.0, 0.18318400000000004)",1
2019/11/15/11:46:14.997388,392,1573785974,997056007,gps,1,1,36.38335717,127.3676022,82.5,"(0.011449000000000003, 0.0, 0.0, 0.0, 0.011449000000000003, 0.0, 0.0, 0.0, 0.18318400000000004)",1
2019/11/15/11:46:15.997660,393,1573785975,997416019,gps,1,1,36.38336817,127.3676002,82.4,"(0.011449000000000003, 0.0, 0.0, 0.0, 0.011449000000000003, 0.0, 0.0, 0.0, 0.18318400000000004)",1
2019/11/15/11:46:16.994489,394,1573785976,994297981,gps,1,1,36.383376,127.3675982,82.3,"(0.015129, 0.0, 0.0, 0.0, 0.015129, 0.0, 0.0, 0.0, 0.242064)",1
2019/11/15/11:46:17.995031,395,1573785977,994828939,gps,1,1,36.3833795,127.3675967,82.2,"(0.011449000000000003, 0.0, 0.0, 0.0, 0.011449000000000003, 0.0, 0.0, 0.0, 0.18318400000000004)",1
2019/11/15/11:46:18.995180,396,1573785978,994971990,gps,1,1,36.3833815,127.3675948,82,"(0.015129, 0.0, 0.0, 0.0, 0.015129, 0.0, 0.0, 0.0, 0.242064)",1
2019/11/15/11:46:19.995192,397,1573785979,994940042,gps,1,1,36.38338117,127.3675912,82,"(0.015129, 0.0, 0.0, 0.0, 0.015129, 0.0, 0.0, 0.0, 0.242064)",1
2019/11/15/11:46:20.997562,398,1573785980,997248888,gps,1,1,36.38338417,127.3675898,82.1,"(0.015129, 0.0, 0.0, 0.0, 0.015129, 0.0, 0.0, 0.0, 0.242064)",1
